{
"type": "FeatureCollection",
"crs": { "type": "name", "properties": { "name": "urn:ogc:def:crs:OGC:1.3:CRS84" } },
                                                                                
"features": [
{ "type": "Feature", "properties": { "business_id": 114, "name": "GOOD MONG KOK", "address": "1039 STOCKTON ST ", "city": "San Francisco", "state": "CA", "postal_code": 94108, "latitude": 37.795594, "longitude": -122.408204, "score": 79, "number_of_violations": 28 }, "geometry": { "type": "Point", "coordinates": [ -122.408204, 37.795594 ] } },
{ "type": "Feature", "properties": { "business_id": 230, "name": "GLOBE EATS INC", "address": "290 PACIFIC AVE ", "city": "San Francisco", "state": "CA", "postal_code": 94111, "latitude": 37.797738, "longitude": -122.400603, "score": 79, "number_of_violations": 26 }, "geometry": { "type": "Point", "coordinates": [ -122.400603, 37.797738 ] } },
{ "type": "Feature", "properties": { "business_id": 286, "name": "PUNJAB KABAB HOUSE", "address": "101 EDDY ST ", "city": "San Francisco", "state": "CA", "postal_code": 94102, "latitude": 37.784303, "longitude": -122.409647, "score": 76, "number_of_violations": 37 }, "geometry": { "type": "Point", "coordinates": [ -122.409647, 37.784303 ] } },
{ "type": "Feature", "properties": { "business_id": 489, "name": "DOL-HO RESTAURANT", "address": "808 PACIFIC AVE ", "city": "San Francisco", "state": "CA", "postal_code": 94133, "latitude": 37.796718, "longitude": -122.408714, "score": 77, "number_of_violations": 30 }, "geometry": { "type": "Point", "coordinates": [ -122.408714, 37.796718 ] } },
{ "type": "Feature", "properties": { "business_id": 667, "name": "U-LEE RESTAURANT", "address": "1468 HYDE ST ", "city": "San Francisco", "state": "CA", "postal_code": 94109, "latitude": 37.794448, "longitude": -122.418057, "score": 79, "number_of_violations": 21 }, "geometry": { "type": "Point", "coordinates": [ -122.418057, 37.794448 ] } },
{ "type": "Feature", "properties": { "business_id": 985, "name": "THE SUNSET'S BEST SEAFOOD RESTAURANT", "address": "3060 TARAVAL ST ", "city": "San Francisco", "state": "CA", "postal_code": 94116, "latitude": 37.742048, "longitude": -122.499002, "score": 74, "number_of_violations": 24 }, "geometry": { "type": "Point", "coordinates": [ -122.499002, 37.742048 ] } },
{ "type": "Feature", "properties": { "business_id": 1276, "name": "IRVING STREET CAFE", "address": "716 IRVING ST ", "city": "San Francisco", "state": "CA", "postal_code": 94122, "latitude": 37.764108, "longitude": -122.465531, "score": 72, "number_of_violations": 23 }, "geometry": { "type": "Point", "coordinates": [ -122.465531, 37.764108 ] } },
{ "type": "Feature", "properties": { "business_id": 1561, "name": "HANG AH TEA ROOM", "address": "1 PAGODA PL ", "city": "San Francisco", "state": "CA", "postal_code": 94108, "latitude": 37.793386, "longitude": -122.407325, "score": 78, "number_of_violations": 15 }, "geometry": { "type": "Point", "coordinates": [ -122.407325, 37.793386 ] } },
{ "type": "Feature", "properties": { "business_id": 1588, "name": "MACARONI EXPRESS", "address": "124 COLUMBUS AVE ", "city": "San Francisco", "state": "CA", "postal_code": 94133, "latitude": 37.796574, "longitude": -122.404702, "score": 74, "number_of_violations": 20 }, "geometry": { "type": "Point", "coordinates": [ -122.404702, 37.796574 ] } },
{ "type": "Feature", "properties": { "business_id": 1595, "name": "ZAZIE", "address": "941 COLE ST ", "city": "San Francisco", "state": "CA", "postal_code": 94117, "latitude": 37.765343, "longitude": -122.449914, "score": 78, "number_of_violations": 16 }, "geometry": { "type": "Point", "coordinates": [ -122.449914, 37.765343 ] } },
{ "type": "Feature", "properties": { "business_id": 1702, "name": "EL TOREADOR FONDA MEXICANA RESTAURANT", "address": "050 WEST PORTAL AVE ", "city": "San Francisco", "state": "CA", "postal_code": 94127, "latitude": 37.74033, "longitude": -122.466412, "score": 78, "number_of_violations": 18 }, "geometry": { "type": "Point", "coordinates": [ -122.466412, 37.74033 ] } },
{ "type": "Feature", "properties": { "business_id": 1835, "name": "ANNA BAKERY", "address": "715 CLAY ST ", "city": "San Francisco", "state": "CA", "postal_code": 94108, "latitude": 37.794372, "longitude": -122.405001, "score": 74, "number_of_violations": 31 }, "geometry": { "type": "Point", "coordinates": [ -122.405001, 37.794372 ] } },
{ "type": "Feature", "properties": { "business_id": 1843, "name": "MA'S DIM SUM & CAFE", "address": "1315 POWELL ST ", "city": "San Francisco", "state": "CA", "postal_code": 94133, "latitude": 37.796683, "longitude": -122.410134, "score": 76, "number_of_violations": 36 }, "geometry": { "type": "Point", "coordinates": [ -122.410134, 37.796683 ] } },
{ "type": "Feature", "properties": { "business_id": 1950, "name": "BULLSHEAD RESTAURANT", "address": "840 ULLOA ST ", "city": "San Francisco", "state": "CA", "postal_code": 94127, "latitude": 37.740785, "longitude": -122.465507, "score": 79, "number_of_violations": 23 }, "geometry": { "type": "Point", "coordinates": [ -122.465507, 37.740785 ] } },
{ "type": "Feature", "properties": { "business_id": 1960, "name": "PARADISE PIZZA", "address": "393 WEST PORTAL AVE ", "city": "San Francisco", "state": "CA", "postal_code": 94127, "latitude": 37.73671, "longitude": -122.470437, "score": 79, "number_of_violations": 11 }, "geometry": { "type": "Point", "coordinates": [ -122.470437, 37.73671 ] } },
{ "type": "Feature", "properties": { "business_id": 2001, "name": "J AND J BAKERY", "address": "1398  09TH AVE ", "city": "San Francisco", "state": "CA", "postal_code": 94122, "latitude": 37.758941, "longitude": -122.48591, "score": 77, "number_of_violations": 23 }, "geometry": { "type": "Point", "coordinates": [ -122.48591, 37.758941 ] } },
{ "type": "Feature", "properties": { "business_id": 2066, "name": "THAI SPICE RESTAURANT", "address": "1730 POLK ST ", "city": "San Francisco", "state": "CA", "postal_code": 94109, "latitude": 37.792677, "longitude": -122.421036, "score": 80, "number_of_violations": 27 }, "geometry": { "type": "Point", "coordinates": [ -122.421036, 37.792677 ] } },
{ "type": "Feature", "properties": { "business_id": 2233, "name": "THE AA BAKERY & CAFE", "address": "1068 STOCKTON ST ", "city": "San Francisco", "state": "CA", "postal_code": 94108, "latitude": 37.795564, "longitude": -122.40809, "score": 80, "number_of_violations": 38 }, "geometry": { "type": "Point", "coordinates": [ -122.40809, 37.795564 ] } },
{ "type": "Feature", "properties": { "business_id": 2390, "name": "GOLDEN RICE BOWL", "address": "1030 IRVING ST ", "city": "San Francisco", "state": "CA", "postal_code": 94122, "latitude": 37.763958, "longitude": -122.469031, "score": 72, "number_of_violations": 27 }, "geometry": { "type": "Point", "coordinates": [ -122.469031, 37.763958 ] } },
{ "type": "Feature", "properties": { "business_id": 2615, "name": "THAI CHEF 2", "address": "4133 18TH ST ", "city": "San Francisco", "state": "CA", "postal_code": 94114, "latitude": 37.760813, "longitude": -122.435789, "score": 77, "number_of_violations": 32 }, "geometry": { "type": "Point", "coordinates": [ -122.435789, 37.760813 ] } },
{ "type": "Feature", "properties": { "business_id": 2700, "name": "NANJING ROAD", "address": "1360 09TH AVE ", "city": "San Francisco", "state": "CA", "postal_code": 94122, "latitude": 37.758941, "longitude": -122.48591, "score": 74, "number_of_violations": 24 }, "geometry": { "type": "Point", "coordinates": [ -122.48591, 37.758941 ] } },
{ "type": "Feature", "properties": { "business_id": 2738, "name": "RAINBOW WAY RESTAURANT", "address": "483 03RD ST ", "city": "San Francisco", "state": "CA", "postal_code": 94107, "latitude": 37.781574, "longitude": -122.396132, "score": 79, "number_of_violations": 26 }, "geometry": { "type": "Point", "coordinates": [ -122.396132, 37.781574 ] } },
{ "type": "Feature", "properties": { "business_id": 2826, "name": "PENA PACHAMAMA", "address": "1630 POWELL ST ", "city": "San Francisco", "state": "CA", "postal_code": 94133, "latitude": 37.799718, "longitude": -122.410677, "score": 78, "number_of_violations": 22 }, "geometry": { "type": "Point", "coordinates": [ -122.410677, 37.799718 ] } },
{ "type": "Feature", "properties": { "business_id": 2950, "name": "CATHAY HOUSE", "address": "718 CALIFORNIA ST ", "city": "San Francisco", "state": "CA", "postal_code": 94108, "latitude": 37.792457, "longitude": -122.406164, "score": 76, "number_of_violations": 26 }, "geometry": { "type": "Point", "coordinates": [ -122.406164, 37.792457 ] } },
{ "type": "Feature", "properties": { "business_id": 3008, "name": "SINBAD'S PIER 2", "address": "PIER 2 EMBARCADERO", "city": "San Francisco", "state": "CA", "postal_code": 94111, "latitude": 37.794818, "longitude": -122.398474, "score": 72, "number_of_violations": 31 }, "geometry": { "type": "Point", "coordinates": [ -122.398474, 37.794818 ] } },
{ "type": "Feature", "properties": { "business_id": 3169, "name": "ANDY'S RESTAURANT", "address": "1358  09TH AVE ", "city": "San Francisco", "state": "CA", "postal_code": 94122, "latitude": 37.758941, "longitude": -122.48591, "score": 72, "number_of_violations": 21 }, "geometry": { "type": "Point", "coordinates": [ -122.48591, 37.758941 ] } },
{ "type": "Feature", "properties": { "business_id": 3209, "name": "HAPPY GARDEN RESTAURANT", "address": "815 CLEMENT ST ", "city": "San Francisco", "state": "CA", "postal_code": 94118, "latitude": 37.782733, "longitude": -122.467979, "score": 77, "number_of_violations": 28 }, "geometry": { "type": "Point", "coordinates": [ -122.467979, 37.782733 ] } },
{ "type": "Feature", "properties": { "business_id": 3221, "name": "PASQUALES", "address": "700 IRVING ST ", "city": "San Francisco", "state": "CA", "postal_code": 94122, "latitude": 37.764108, "longitude": -122.465512, "score": 80, "number_of_violations": 15 }, "geometry": { "type": "Point", "coordinates": [ -122.465512, 37.764108 ] } },
{ "type": "Feature", "properties": { "business_id": 3480, "name": "OCEAN PEARL RESTAURANT", "address": "781 BROADWAY ST ", "city": "San Francisco", "state": "CA", "postal_code": 94133, "latitude": 37.797473, "longitude": -122.409626, "score": 78, "number_of_violations": 32 }, "geometry": { "type": "Point", "coordinates": [ -122.409626, 37.797473 ] } },
{ "type": "Feature", "properties": { "business_id": 3751, "name": "WOO RI FOOD MARKET", "address": "1528 FILLMORE ST", "city": "San Francisco", "state": "CA", "postal_code": 94115, "latitude": 37.783707, "longitude": -122.432756, "score": 79, "number_of_violations": 25 }, "geometry": { "type": "Point", "coordinates": [ -122.432756, 37.783707 ] } },
{ "type": "Feature", "properties": { "business_id": 3817, "name": "HAPPY CHINESE RESTAURANT", "address": "1324 POWELL ST ", "city": "San Francisco", "state": "CA", "postal_code": 94133, "latitude": 37.796848, "longitude": -122.410097, "score": 75, "number_of_violations": 33 }, "geometry": { "type": "Point", "coordinates": [ -122.410097, 37.796848 ] } },
{ "type": "Feature", "properties": { "business_id": 3825, "name": "COVE CAFE", "address": "434 CASTRO ST ", "city": "San Francisco", "state": "CA", "postal_code": 94114, "latitude": 37.761918, "longitude": -122.435135, "score": 76, "number_of_violations": 36 }, "geometry": { "type": "Point", "coordinates": [ -122.435135, 37.761918 ] } },
{ "type": "Feature", "properties": { "business_id": 4533, "name": "GOURMET DELIGHT", "address": "1045 STOCKTON ST ", "city": "San Francisco", "state": "CA", "postal_code": 94108, "latitude": 37.795594, "longitude": -122.408204, "score": 78, "number_of_violations": 33 }, "geometry": { "type": "Point", "coordinates": [ -122.408204, 37.795594 ] } },
{ "type": "Feature", "properties": { "business_id": 4614, "name": "SUN SANG MARKET", "address": "1205 STOCKTON ST ", "city": "San Francisco", "state": "CA", "postal_code": 94133, "latitude": 37.796973, "longitude": -122.408504, "score": 71, "number_of_violations": 25 }, "geometry": { "type": "Point", "coordinates": [ -122.408504, 37.796973 ] } },
{ "type": "Feature", "properties": { "business_id": 7119, "name": "LO-COST MEAT MARKET #2", "address": "2918 24TH ST ", "city": "San Francisco", "state": "CA", "postal_code": 94110, "latitude": 37.752768, "longitude": -122.410472, "score": 75, "number_of_violations": 17 }, "geometry": { "type": "Point", "coordinates": [ -122.410472, 37.752768 ] } },
{ "type": "Feature", "properties": { "business_id": 7772, "name": "LA REYNA BAKERY", "address": "3114 24TH ST ", "city": "San Francisco", "state": "CA", "postal_code": 94110, "latitude": 37.752549, "longitude": -122.414425, "score": 79, "number_of_violations": 18 }, "geometry": { "type": "Point", "coordinates": [ -122.414425, 37.752549 ] } },
{ "type": "Feature", "properties": { "business_id": 9456, "name": "MIS ANTOJITOS RESTAURANT", "address": "2598 HARRISON STREET", "city": "San Francisco", "state": "CA", "postal_code": 94110, "latitude": 37.756007, "longitude": -122.412245, "score": 74, "number_of_violations": 21 }, "geometry": { "type": "Point", "coordinates": [ -122.412245, 37.756007 ] } },
{ "type": "Feature", "properties": { "business_id": 9679, "name": "EASTERN BAKERY INC", "address": "720 GRANT AVE", "city": "San Francisco", "state": "CA", "postal_code": 94108, "latitude": 37.793598, "longitude": -122.406097, "score": 75, "number_of_violations": 30 }, "geometry": { "type": "Point", "coordinates": [ -122.406097, 37.793598 ] } },
{ "type": "Feature", "properties": { "business_id": 10413, "name": "KL1 RESTAURANT", "address": "4401 BALBOA ST", "city": "San Francisco", "state": "CA", "postal_code": 94121, "latitude": 37.775273, "longitude": -122.506119, "score": 76, "number_of_violations": 51 }, "geometry": { "type": "Point", "coordinates": [ -122.506119, 37.775273 ] } },
{ "type": "Feature", "properties": { "business_id": 15184, "name": "LIME TREE", "address": "450 D IRVING ST ", "city": "San Francisco", "state": "CA", "postal_code": 94122, "latitude": 37.758941, "longitude": -122.48591, "score": 79, "number_of_violations": 25 }, "geometry": { "type": "Point", "coordinates": [ -122.48591, 37.758941 ] } },
{ "type": "Feature", "properties": { "business_id": 19146, "name": "MORTY'S DELICATESSEN", "address": "280 GOLDEN GATE AVE ", "city": "San Francisco", "state": "CA", "postal_code": 94102, "latitude": 37.781718, "longitude": -122.415194, "score": 78, "number_of_violations": 26 }, "geometry": { "type": "Point", "coordinates": [ -122.415194, 37.781718 ] } },
{ "type": "Feature", "properties": { "business_id": 19150, "name": "MISSION-SILVER MARKET", "address": "4304 MISSION ST ", "city": "San Francisco", "state": "CA", "postal_code": 94112, "latitude": 37.728698, "longitude": -122.43141, "score": 78, "number_of_violations": 7 }, "geometry": { "type": "Point", "coordinates": [ -122.43141, 37.728698 ] } },
{ "type": "Feature", "properties": { "business_id": 19271, "name": "BANGKOK NOODLES & THAI BBQ", "address": "110 POWELL ST", "city": "San Francisco", "state": "CA", "postal_code": 94102, "latitude": 37.785628, "longitude": -122.407786, "score": 79, "number_of_violations": 31 }, "geometry": { "type": "Point", "coordinates": [ -122.407786, 37.785628 ] } },
{ "type": "Feature", "properties": { "business_id": 23701, "name": "WAH HING MARKET", "address": "1200 STOCKTON ST ", "city": "San Francisco", "state": "CA", "postal_code": 94133, "latitude": 37.796808, "longitude": -122.408397, "score": 77, "number_of_violations": 38 }, "geometry": { "type": "Point", "coordinates": [ -122.408397, 37.796808 ] } },
{ "type": "Feature", "properties": { "business_id": 26340, "name": "VIP COFFEE & CAKE SHOP", "address": "671 BROADWAY ST ", "city": "San Francisco", "state": "CA", "postal_code": 94133, "latitude": 37.797704, "longitude": -122.408058, "score": 78, "number_of_violations": 33 }, "geometry": { "type": "Point", "coordinates": [ -122.408058, 37.797704 ] } },
{ "type": "Feature", "properties": { "business_id": 28035, "name": "CHOICE YAKINIKU", "address": "5214A DIAMOND HEIGHTS BLVD.", "city": "San Francisco", "state": "CA", "postal_code": 94131, "latitude": 37.744449, "longitude": -122.439384, "score": 77, "number_of_violations": 22 }, "geometry": { "type": "Point", "coordinates": [ -122.439384, 37.744449 ] } },
{ "type": "Feature", "properties": { "business_id": 33641, "name": "ROTI INDIAN BISTRO", "address": "53 WEST PORTAL AVE", "city": "San Francisco", "state": "CA", "postal_code": 94127, "latitude": 37.740227, "longitude": -122.466338, "score": 73, "number_of_violations": 17 }, "geometry": { "type": "Point", "coordinates": [ -122.466338, 37.740227 ] } },
{ "type": "Feature", "properties": { "business_id": 33802, "name": "NEW UNITED SUPERMARKET, INC", "address": "1117 STOCKTON ST ", "city": "San Francisco", "state": "CA", "postal_code": 94133, "latitude": 37.796113, "longitude": -122.408314, "score": 80, "number_of_violations": 37 }, "geometry": { "type": "Point", "coordinates": [ -122.408314, 37.796113 ] } },
{ "type": "Feature", "properties": { "business_id": 34585, "name": "HING WANG BAKERY", "address": "339 JUDAH ST ", "city": "San Francisco", "state": "CA", "postal_code": 94122, "latitude": 37.762174, "longitude": -122.465809, "score": 75, "number_of_violations": 31 }, "geometry": { "type": "Point", "coordinates": [ -122.465809, 37.762174 ] } },
{ "type": "Feature", "properties": { "business_id": 35963, "name": "TUK TUK THAI CAFE", "address": "659 UNION ST ", "city": "San Francisco", "state": "CA", "postal_code": 94133, "latitude": 37.800254, "longitude": -122.410447, "score": 79, "number_of_violations": 36 }, "geometry": { "type": "Point", "coordinates": [ -122.410447, 37.800254 ] } },
{ "type": "Feature", "properties": { "business_id": 36169, "name": "GRAB AND GO", "address": "480 06TH ST ", "city": "San Francisco", "state": "CA", "postal_code": 94103, "latitude": 37.774722, "longitude": -122.406761, "score": 76, "number_of_violations": 21 }, "geometry": { "type": "Point", "coordinates": [ -122.406761, 37.774722 ] } },
{ "type": "Feature", "properties": { "business_id": 37152, "name": "PHO VUNG TAU, INC", "address": "708 VALLEJO ST", "city": "San Francisco", "state": "CA", "postal_code": 94133, "latitude": 37.798578, "longitude": -122.409094, "score": 79, "number_of_violations": 36 }, "geometry": { "type": "Point", "coordinates": [ -122.409094, 37.798578 ] } },
{ "type": "Feature", "properties": { "business_id": 37231, "name": "UTOPIA CAFE", "address": "139 WAVERLY PL ", "city": "San Francisco", "state": "CA", "postal_code": 94108, "latitude": 37.794723, "longitude": -122.406944, "score": 74, "number_of_violations": 14 }, "geometry": { "type": "Point", "coordinates": [ -122.406944, 37.794723 ] } },
{ "type": "Feature", "properties": { "business_id": 37398, "name": "VICTOR'S BAKERY", "address": "719 TARAVAL ST ", "city": "San Francisco", "state": "CA", "postal_code": 94116, "latitude": 37.743103, "longitude": -122.473899, "score": 72, "number_of_violations": 24 }, "geometry": { "type": "Point", "coordinates": [ -122.473899, 37.743103 ] } },
{ "type": "Feature", "properties": { "business_id": 37882, "name": "FIRST CAKE", "address": "5901 GEARY BLVD ", "city": "San Francisco", "state": "CA", "postal_code": 94121, "latitude": 37.780087, "longitude": -122.482596, "score": 71, "number_of_violations": 18 }, "geometry": { "type": "Point", "coordinates": [ -122.482596, 37.780087 ] } },
{ "type": "Feature", "properties": { "business_id": 38428, "name": "HOLIDAY INN (RESTAURANT & BAR)", "address": "50 08TH ST ", "city": "San Francisco", "state": "CA", "postal_code": 94103, "latitude": 37.777937, "longitude": -122.413809, "score": 78, "number_of_violations": 19 }, "geometry": { "type": "Point", "coordinates": [ -122.413809, 37.777937 ] } },
{ "type": "Feature", "properties": { "business_id": 39024, "name": "TRATTORIA VOLARE CAFFE", "address": "561 COLUMBUS AVE ", "city": "San Francisco", "state": "CA", "postal_code": 94133, "latitude": 37.800096, "longitude": -122.409907, "score": 80, "number_of_violations": 15 }, "geometry": { "type": "Point", "coordinates": [ -122.409907, 37.800096 ] } },
{ "type": "Feature", "properties": { "business_id": 39113, "name": "GREEN PAPAYA RESTAURANT", "address": "825 MISSION ST ", "city": "San Francisco", "state": "CA", "postal_code": 94103, "latitude": 37.783827, "longitude": -122.405051, "score": 75, "number_of_violations": 33 }, "geometry": { "type": "Point", "coordinates": [ -122.405051, 37.783827 ] } },
{ "type": "Feature", "properties": { "business_id": 39396, "name": "NEW REGENT CAFE", "address": "638 PACIFIC AVE ", "city": "San Francisco", "state": "CA", "postal_code": 94133, "latitude": 37.797008, "longitude": -122.406313, "score": 73, "number_of_violations": 49 }, "geometry": { "type": "Point", "coordinates": [ -122.406313, 37.797008 ] } },
{ "type": "Feature", "properties": { "business_id": 57552, "name": "CAFE PRAGUE", "address": "424 MERCHANT ST ", "city": "San Francisco", "state": "CA", "postal_code": 94111, "latitude": 37.795398, "longitude": -122.400944, "score": 75, "number_of_violations": 34 }, "geometry": { "type": "Point", "coordinates": [ -122.400944, 37.795398 ] } },
{ "type": "Feature", "properties": { "business_id": 58673, "name": "NEW LUEN SING FISH MARKET", "address": "1207 STOCKTON ST ", "city": "San Francisco", "state": "CA", "postal_code": 94133, "latitude": 37.796973, "longitude": -122.408504, "score": 79, "number_of_violations": 20 }, "geometry": { "type": "Point", "coordinates": [ -122.408504, 37.796973 ] } },
{ "type": "Feature", "properties": { "business_id": 58712, "name": "KING OF NOODLES", "address": "1639 IRVING ST ", "city": "San Francisco", "state": "CA", "postal_code": 94122, "latitude": 37.763603, "longitude": -122.475679, "score": 75, "number_of_violations": 25 }, "geometry": { "type": "Point", "coordinates": [ -122.475679, 37.763603 ] } },
{ "type": "Feature", "properties": { "business_id": 59828, "name": "TIP TOP MARKET", "address": "84 TURK ST ", "city": "San Francisco", "state": "CA", "postal_code": 94102, "latitude": 37.783268, "longitude": -122.410553, "score": 80, "number_of_violations": 24 }, "geometry": { "type": "Point", "coordinates": [ -122.410553, 37.783268 ] } },
{ "type": "Feature", "properties": { "business_id": 60710, "name": "GREAT HUNAN", "address": "531 JACKSON ST ", "city": "San Francisco", "state": "CA", "postal_code": 94133, "latitude": 37.796263, "longitude": -122.404497, "score": 71, "number_of_violations": 31 }, "geometry": { "type": "Point", "coordinates": [ -122.404497, 37.796263 ] } },
{ "type": "Feature", "properties": { "business_id": 61606, "name": "PERGAMINO", "address": "1323 COLUMBUS AVE ", "city": "San Francisco", "state": "CA", "postal_code": 94133, "latitude": 37.806416, "longitude": -122.419077, "score": 79, "number_of_violations": 21 }, "geometry": { "type": "Point", "coordinates": [ -122.419077, 37.806416 ] } },
{ "type": "Feature", "properties": { "business_id": 61799, "name": "MEI SHENG MARKET, INC", "address": "1101 GRANT AVE ", "city": "San Francisco", "state": "CA", "postal_code": 94133, "latitude": 37.797032, "longitude": -122.406854, "score": 80, "number_of_violations": 49 }, "geometry": { "type": "Point", "coordinates": [ -122.406854, 37.797032 ] } },
{ "type": "Feature", "properties": { "business_id": 61854, "name": "CURRY VILLAGE", "address": "1386 09TH AVE ", "city": "San Francisco", "state": "CA", "postal_code": 94122, "latitude": 37.758941, "longitude": -122.48591, "score": 77, "number_of_violations": 41 }, "geometry": { "type": "Point", "coordinates": [ -122.48591, 37.758941 ] } },
{ "type": "Feature", "properties": { "business_id": 62064, "name": "CALIFORNIA GROCERY", "address": "123 EDDY ST", "city": "San Francisco", "state": "CA", "postal_code": 94102, "latitude": 37.784303, "longitude": -122.409647, "score": 79, "number_of_violations": 19 }, "geometry": { "type": "Point", "coordinates": [ -122.409647, 37.784303 ] } },
{ "type": "Feature", "properties": { "business_id": 62330, "name": "SOCIAL KITCHEN & BREWERY", "address": "1326 09TH AVE ", "city": "San Francisco", "state": "CA", "postal_code": 94122, "latitude": 37.758941, "longitude": -122.48591, "score": 72, "number_of_violations": 14 }, "geometry": { "type": "Point", "coordinates": [ -122.48591, 37.758941 ] } },
{ "type": "Feature", "properties": { "business_id": 62882, "name": "BROADWAY TUTTIMELON", "address": "601 BROADWAY ST ", "city": "San Francisco", "state": "CA", "postal_code": 94133, "latitude": 37.797803, "longitude": -122.407247, "score": 79, "number_of_violations": 50 }, "geometry": { "type": "Point", "coordinates": [ -122.407247, 37.797803 ] } },
{ "type": "Feature", "properties": { "business_id": 63674, "name": "SAN DONG HOUSE BBQ", "address": "3741 GEARY BLVD ", "city": "San Francisco", "state": "CA", "postal_code": 94118, "latitude": 37.781143, "longitude": -122.459619, "score": 78, "number_of_violations": 46 }, "geometry": { "type": "Point", "coordinates": [ -122.459619, 37.781143 ] } },
{ "type": "Feature", "properties": { "business_id": 63789, "name": "KAN'S RESTAURANT", "address": "708 GRANT AVE ", "city": "San Francisco", "state": "CA", "postal_code": 94108, "latitude": 37.793598, "longitude": -122.406097, "score": 80, "number_of_violations": 35 }, "geometry": { "type": "Point", "coordinates": [ -122.406097, 37.793598 ] } },
{ "type": "Feature", "properties": { "business_id": 64176, "name": "DRAGON RIVER RESTAURANT", "address": "5045 GEARY BLVD ", "city": "San Francisco", "state": "CA", "postal_code": 94118, "latitude": 37.780523, "longitude": -122.47358, "score": 80, "number_of_violations": 33 }, "geometry": { "type": "Point", "coordinates": [ -122.47358, 37.780523 ] } },
{ "type": "Feature", "properties": { "business_id": 64549, "name": "EIGHT IMMORTALS", "address": "1433 TARAVAL ST ", "city": "San Francisco", "state": "CA", "postal_code": 94116, "latitude": 37.742754, "longitude": -122.481659, "score": 77, "number_of_violations": 36 }, "geometry": { "type": "Point", "coordinates": [ -122.481659, 37.742754 ] } },
{ "type": "Feature", "properties": { "business_id": 65382, "name": "MANNA", "address": "845 IRVING ST ", "city": "San Francisco", "state": "CA", "postal_code": 94122, "latitude": 37.763983, "longitude": -122.46709, "score": 79, "number_of_violations": 25 }, "geometry": { "type": "Point", "coordinates": [ -122.46709, 37.763983 ] } },
{ "type": "Feature", "properties": { "business_id": 65423, "name": "NAAN & CURRY", "address": "336 O'FARRELL ST ", "city": "San Francisco", "state": "CA", "postal_code": 94102, "latitude": 37.786167, "longitude": -122.410294, "score": 75, "number_of_violations": 49 }, "geometry": { "type": "Point", "coordinates": [ -122.410294, 37.786167 ] } },
{ "type": "Feature", "properties": { "business_id": 65561, "name": "HOUSE OF DIM SUM, INC.", "address": "735 JACKSON ST ", "city": "San Francisco", "state": "CA", "postal_code": 94133, "latitude": 37.795873, "longitude": -122.407495, "score": 80, "number_of_violations": 19 }, "geometry": { "type": "Point", "coordinates": [ -122.407495, 37.795873 ] } },
{ "type": "Feature", "properties": { "business_id": 66640, "name": "CURRY BOYZZ", "address": "4238 18TH ST ", "city": "San Francisco", "state": "CA", "postal_code": 94114, "latitude": 37.760798, "longitude": -122.436783, "score": 75, "number_of_violations": 27 }, "geometry": { "type": "Point", "coordinates": [ -122.436783, 37.760798 ] } },
{ "type": "Feature", "properties": { "business_id": 67330, "name": "SAN TUNG RESTAURANT LLC", "address": "1031 IRVING ST ", "city": "San Francisco", "state": "CA", "postal_code": 94122, "latitude": 37.763891, "longitude": -122.468805, "score": 75, "number_of_violations": 12 }, "geometry": { "type": "Point", "coordinates": [ -122.468805, 37.763891 ] } },
{ "type": "Feature", "properties": { "business_id": 67500, "name": "TONIGHT RESTAURANT", "address": "733 TARAVAL ST ", "city": "San Francisco", "state": "CA", "postal_code": 94116, "latitude": 37.743093, "longitude": -122.474149, "score": 80, "number_of_violations": 6 }, "geometry": { "type": "Point", "coordinates": [ -122.474149, 37.743093 ] } },
{ "type": "Feature", "properties": { "business_id": 67577, "name": "SAO BIEN RESTAURANT", "address": "701 LARKIN ST", "city": "San Francisco", "state": "CA", "postal_code": 94109, "latitude": 37.784433, "longitude": -122.417793, "score": 77, "number_of_violations": 37 }, "geometry": { "type": "Point", "coordinates": [ -122.417793, 37.784433 ] } },
{ "type": "Feature", "properties": { "business_id": 67596, "name": "VALLARTA TACO BAR", "address": "3033 24TH ST ", "city": "San Francisco", "state": "CA", "postal_code": 94110, "latitude": 37.752574, "longitude": -122.412578, "score": 78, "number_of_violations": 14 }, "geometry": { "type": "Point", "coordinates": [ -122.412578, 37.752574 ] } },
{ "type": "Feature", "properties": { "business_id": 67849, "name": "DANTE'S TABLE", "address": "544 CASTRO ST ", "city": "San Francisco", "state": "CA", "postal_code": 94114, "latitude": 37.760148, "longitude": -122.434965, "score": 74, "number_of_violations": 15 }, "geometry": { "type": "Point", "coordinates": [ -122.434965, 37.760148 ] } },
{ "type": "Feature", "properties": { "business_id": 67936, "name": "DOTTIE'S TRUE BLUE CAFE", "address": "28 06TH ST ", "city": "San Francisco", "state": "CA", "postal_code": 94103, "latitude": 37.774722, "longitude": -122.406761, "score": 77, "number_of_violations": 11 }, "geometry": { "type": "Point", "coordinates": [ -122.406761, 37.774722 ] } },
{ "type": "Feature", "properties": { "business_id": 68042, "name": "YUMMY YUMMY", "address": "758 PACIFIC AVE ", "city": "San Francisco", "state": "CA", "postal_code": 94133, "latitude": 37.796828, "longitude": -122.407804, "score": 80, "number_of_violations": 16 }, "geometry": { "type": "Point", "coordinates": [ -122.407804, 37.796828 ] } },
{ "type": "Feature", "properties": { "business_id": 68056, "name": "ANDRONICO'S COMMITY MARKETS", "address": "1200 IRVING ST ", "city": "San Francisco", "state": "CA", "postal_code": 94122, "latitude": 37.763858, "longitude": -122.471122, "score": 74, "number_of_violations": 14 }, "geometry": { "type": "Point", "coordinates": [ -122.471122, 37.763858 ] } },
{ "type": "Feature", "properties": { "business_id": 68367, "name": "JASMINE TEA HOUSE", "address": "3253 MISSION ST ", "city": "San Francisco", "state": "CA", "postal_code": 94110, "latitude": 37.744833, "longitude": -122.420364, "score": 79, "number_of_violations": 23 }, "geometry": { "type": "Point", "coordinates": [ -122.420364, 37.744833 ] } },
{ "type": "Feature", "properties": { "business_id": 68368, "name": "THE GRILLS AND POTS", "address": "852 CLEMENT ST ", "city": "San Francisco", "state": "CA", "postal_code": 94118, "latitude": 37.782811, "longitude": -122.468206, "score": 78, "number_of_violations": 10 }, "geometry": { "type": "Point", "coordinates": [ -122.468206, 37.782811 ] } },
{ "type": "Feature", "properties": { "business_id": 68433, "name": "NEW FORTUNE DIM SUM", "address": "811 STOCKTON ST", "city": "San Francisco", "state": "CA", "postal_code": 94108, "latitude": 37.793295, "longitude": -122.407788, "score": 80, "number_of_violations": 20 }, "geometry": { "type": "Point", "coordinates": [ -122.407788, 37.793295 ] } },
{ "type": "Feature", "properties": { "business_id": 68438, "name": "WEXLER'S BACK", "address": "565 COMMERCIAL ST ", "city": "San Francisco", "state": "CA", "postal_code": 94111, "latitude": 37.794233, "longitude": -122.402648, "score": 75, "number_of_violations": 5 }, "geometry": { "type": "Point", "coordinates": [ -122.402648, 37.794233 ] } },
{ "type": "Feature", "properties": { "business_id": 68620, "name": "ABC BAKERY CAFE INC.", "address": "2500 NORIEGA ST ", "city": "San Francisco", "state": "CA", "postal_code": 94122, "latitude": 37.753684, "longitude": -122.490438, "score": 74, "number_of_violations": 27 }, "geometry": { "type": "Point", "coordinates": [ -122.490438, 37.753684 ] } },
{ "type": "Feature", "properties": { "business_id": 68825, "name": "CAFE NEW HONOLULU", "address": "888 STOCKTON ST ", "city": "San Francisco", "state": "CA", "postal_code": 94108, "latitude": 37.79397, "longitude": -122.40776, "score": 75, "number_of_violations": 20 }, "geometry": { "type": "Point", "coordinates": [ -122.40776, 37.79397 ] } },
{ "type": "Feature", "properties": { "business_id": 69118, "name": "NOODLE BAR AND GRILL", "address": "631 BROADWAY ST ", "city": "San Francisco", "state": "CA", "postal_code": 94133, "latitude": 37.797744, "longitude": -122.407488, "score": 77, "number_of_violations": 13 }, "geometry": { "type": "Point", "coordinates": [ -122.407488, 37.797744 ] } },
{ "type": "Feature", "properties": { "business_id": 69995, "name": "CRAZY PEPPER", "address": "2257 SAN JOSE AVE.", "city": "San Francisco", "state": "CA", "postal_code": 94112, "latitude": 37.721094, "longitude": -122.446236, "score": 79, "number_of_violations": 15 }, "geometry": { "type": "Point", "coordinates": [ -122.446236, 37.721094 ] } },
{ "type": "Feature", "properties": { "business_id": 70068, "name": "ORIENTAL RESTAURANT", "address": "1063 MARKET ST ", "city": "San Francisco", "state": "CA", "postal_code": 94103, "latitude": 37.781108, "longitude": -122.411635, "score": 78, "number_of_violations": 19 }, "geometry": { "type": "Point", "coordinates": [ -122.411635, 37.781108 ] } },
{ "type": "Feature", "properties": { "business_id": 70838, "name": "TRATTORIA DA VITTORIO", "address": "150 WEST PORTAL AVE ", "city": "San Francisco", "state": "CA", "postal_code": 94127, "latitude": 37.739223, "longitude": -122.46766, "score": 71, "number_of_violations": 6 }, "geometry": { "type": "Point", "coordinates": [ -122.46766, 37.739223 ] } },
{ "type": "Feature", "properties": { "business_id": 71232, "name": "UNCLE CAFE", "address": "65 WAVERLY PL ", "city": "San Francisco", "state": "CA", "postal_code": 94108, "latitude": 37.794034, "longitude": -122.406794, "score": 80, "number_of_violations": 8 }, "geometry": { "type": "Point", "coordinates": [ -122.406794, 37.794034 ] } },
{ "type": "Feature", "properties": { "business_id": 71385, "name": "YAMA SUSHI RESTAURANT", "address": "850 HOLLOWAY AVE ", "city": "San Francisco", "state": "CA", "postal_code": 94132, "latitude": 37.721858, "longitude": -122.46203, "score": 71, "number_of_violations": 33 }, "geometry": { "type": "Point", "coordinates": [ -122.46203, 37.721858 ] } },
{ "type": "Feature", "properties": { "business_id": 71657, "name": "BAAN THAI LLC", "address": "534 IRVING ST ", "city": "San Francisco", "state": "CA", "postal_code": 94122, "latitude": 37.764188, "longitude": -122.463683, "score": 79, "number_of_violations": 14 }, "geometry": { "type": "Point", "coordinates": [ -122.463683, 37.764188 ] } }
]
}
