{
"type": "FeatureCollection",
"crs": { "type": "name", "properties": { "name": "urn:ogc:def:crs:OGC:1.3:CRS84" } },
                                                                                
"features": [
{ "type": "Feature", "properties": { "business_id": 853, "name": "MEE HEONG BAKERY", "address": "1343 POWELL ST ", "city": "San Francisco", "state": "CA", "postal_code": 94133, "latitude": 37.796994, "longitude": -122.410194, "score": 61, "number_of_violations": 19 }, "geometry": { "type": "Point", "coordinates": [ -122.410194, 37.796994 ] } },
{ "type": "Feature", "properties": { "business_id": 854, "name": "FIRENZE BY NIGHT", "address": "1421 STOCKTON ST", "city": "San Francisco", "state": "CA", "postal_code": 94133, "latitude": 37.798914, "longitude": -122.408885, "score": 69, "number_of_violations": 31 }, "geometry": { "type": "Point", "coordinates": [ -122.408885, 37.798914 ] } },
{ "type": "Feature", "properties": { "business_id": 2302, "name": "MANOR COFFEE SHOP", "address": "321A WEST PORTAL AVE ", "city": "San Francisco", "state": "CA", "postal_code": 94127, "latitude": 37.73762, "longitude": -122.469396, "score": 65, "number_of_violations": 28 }, "geometry": { "type": "Point", "coordinates": [ -122.469396, 37.73762 ] } },
{ "type": "Feature", "properties": { "business_id": 2697, "name": "HOWARD'S CAFE", "address": "1309 09TH AVE ", "city": "San Francisco", "state": "CA", "postal_code": 94122, "latitude": 37.758941, "longitude": -122.48591, "score": 70, "number_of_violations": 41 }, "geometry": { "type": "Point", "coordinates": [ -122.48591, 37.758941 ] } },
{ "type": "Feature", "properties": { "business_id": 3151, "name": "NEW ASIA RESTAURANT", "address": "772 PACIFIC AVE ", "city": "San Francisco", "state": "CA", "postal_code": 94133, "latitude": 37.796808, "longitude": -122.407964, "score": 65, "number_of_violations": 58 }, "geometry": { "type": "Point", "coordinates": [ -122.407964, 37.796808 ] } },
{ "type": "Feature", "properties": { "business_id": 4588, "name": "PICCOLO PETES", "address": "2155 BAYSHORE BLVD ", "city": "San Francisco", "state": "CA", "postal_code": 94134, "latitude": 37.712686, "longitude": -122.400903, "score": 62, "number_of_violations": 15 }, "geometry": { "type": "Point", "coordinates": [ -122.400903, 37.712686 ] } },
{ "type": "Feature", "properties": { "business_id": 6695, "name": "MANILA MARKET & GROCERIES", "address": "987 MISSION ST ", "city": "San Francisco", "state": "CA", "postal_code": 94103, "latitude": 37.781204, "longitude": -122.408316, "score": 64, "number_of_violations": 36 }, "geometry": { "type": "Point", "coordinates": [ -122.408316, 37.781204 ] } },
{ "type": "Feature", "properties": { "business_id": 18480, "name": "IMPERIAL PALACE", "address": "818 WASHINGTON ST ", "city": "San Francisco", "state": "CA", "postal_code": 94108, "latitude": 37.795138, "longitude": -122.406863, "score": 66, "number_of_violations": 30 }, "geometry": { "type": "Point", "coordinates": [ -122.406863, 37.795138 ] } },
{ "type": "Feature", "properties": { "business_id": 26005, "name": "OSAKA SUSHI", "address": "460 CASTRO ST ", "city": "San Francisco", "state": "CA", "postal_code": 94114, "latitude": 37.761557, "longitude": -122.435095, "score": 69, "number_of_violations": 41 }, "geometry": { "type": "Point", "coordinates": [ -122.435095, 37.761557 ] } },
{ "type": "Feature", "properties": { "business_id": 63389, "name": "THE POT STICKER", "address": "150 WAVERLY PL ", "city": "San Francisco", "state": "CA", "postal_code": 94108, "latitude": 37.794798, "longitude": -122.406887, "score": 67, "number_of_violations": 17 }, "geometry": { "type": "Point", "coordinates": [ -122.406887, 37.794798 ] } },
{ "type": "Feature", "properties": { "business_id": 63986, "name": "ALL SEASON RESTAURANT", "address": "5238 DIAMOND HTS BLVD ", "city": "San Francisco", "state": "CA", "postal_code": 94131, "latitude": 37.744146, "longitude": -122.438805, "score": 44, "number_of_violations": 32 }, "geometry": { "type": "Point", "coordinates": [ -122.438805, 37.744146 ] } },
{ "type": "Feature", "properties": { "business_id": 64154, "name": "YUMMY DIM SUM & FAST FOOD, LLC", "address": "930 STOCKTON ST ", "city": "San Francisco", "state": "CA", "postal_code": 94108, "latitude": 37.794457, "longitude": -122.407896, "score": 70, "number_of_violations": 17 }, "geometry": { "type": "Point", "coordinates": [ -122.407896, 37.794457 ] } },
{ "type": "Feature", "properties": { "business_id": 64898, "name": "CARNELIAN", "address": "1 FERRY PLAZA  ", "city": "San Francisco", "state": "CA", "postal_code": 94111, "latitude": 37.795541, "longitude": -122.392, "score": 70, "number_of_violations": 17 }, "geometry": { "type": "Point", "coordinates": [ -122.392, 37.795541 ] } },
{ "type": "Feature", "properties": { "business_id": 69205, "name": "LAI HONG LOUNGE", "address": "1416 POWELL ST ", "city": "San Francisco", "state": "CA", "postal_code": 94133, "latitude": 37.797596, "longitude": -122.410207, "score": 69, "number_of_violations": 18 }, "geometry": { "type": "Point", "coordinates": [ -122.410207, 37.797596 ] } },
{ "type": "Feature", "properties": { "business_id": 69511, "name": "LET'S EAT GRILL STOP", "address": "428 11TH ST ", "city": "San Francisco", "state": "CA", "postal_code": 94103, "latitude": 37.769957, "longitude": -122.411668, "score": 66, "number_of_violations": 6 }, "geometry": { "type": "Point", "coordinates": [ -122.411668, 37.769957 ] } },
{ "type": "Feature", "properties": { "business_id": 69654, "name": "SZECHUAN TASTE RESTAURANT", "address": "917 TARAVAL", "city": "San Francisco", "state": "CA", "postal_code": 94116, "latitude": 37.742971, "longitude": -122.475861, "score": 67, "number_of_violations": 7 }, "geometry": { "type": "Point", "coordinates": [ -122.475861, 37.742971 ] } }
]
}
